"","CTDID","Region","Year","Mission","Location","Latitude","Longitude","ESTDate","UTCDate","EST.Time","UTCTime","Sample_Depth_m","DIC","TA","pH","pCO2","Aragonite_Sat_W","Salinity_Bottle","Conductivity_Sm","Salinity_CTD","Temperature_C","Pressure_db","Density_Sigmat","SiteID","Survey_design","Sample_frequency","Date","Season","Precipitation","Month","BestSalinity","TA_0","DIC_0","nTA","nDIC","dec.lon","dec.lat","Zone","Sub_region","Reference"
"1185","WS17212_30","FLK",2017,"WaltonSmith","FLK",24.6095,-81.4213,"08/01/17","08/01/17","11:50:00 AM","03:50:00 PM",0,2025.47,2169.27,7.673,1014.158,1.833,36.321,NA,36.25,29.03,0,NA,"19","Permanent","Single",2017-08-01,"Summer","Wet","August",36.321,2761.01831444374,3227.6940676083,2190.79197140443,2069.19506245177,-81.42166667,24.61,"Inshore","LK",10
"1810","CalVal_Jul2019_5","FLK",2019,"CalVal","FLK",24.89558333,-80.61663333,"07/10/19","07/10/19","01:00:00 PM","05:00:00 PM",0,2307.9309,2372.671858,7.426094052,2082.723471,1.297162514,36.87781899,NA,NA,30.7,NA,NA,"CalVal_S","Permanent","Single",2019-07-10,"Summer","Wet","July",36.87781899,2761.01831444374,3227.6940676083,2392.44646426961,2354.76525164389,NA,NA,"Inshore","UK",5
"1811","CalVal_Jul2019_6","FLK",2019,"CalVal","FLK",24.89646667,-80.6182,"07/10/19","07/10/19","01:12:00 PM","05:12:00 PM",0,2302.569115,2373.204777,7.441470592,2004.413211,1.340792152,36.9157938,NA,NA,30.7,NA,NA,"ADCP_S","Permanent","Single",2019-07-10,"Summer","Wet","July",36.9157938,2761.01831444374,3227.6940676083,2393.33087193422,2350.57969437517,NA,NA,"Inshore","UK",5
"1812","CalVal_Jul2019_7","FLK",2019,"CalVal","FLK",24.8977,-80.61816667,"07/10/19","07/10/19","02:17:00 PM","06:17:00 PM",0,2309.319101,2380.432268,7.439413384,2023.028366,1.353327944,36.83198624,NA,NA,31,NA,NA,"MapCO2_Buoy","Permanent","Single",2019-07-10,"Summer","Wet","July",36.83198624,2761.01831444374,3227.6940676083,2399.3622381536,2354.99815536932,NA,NA,"Inshore","UK",5
"1813","CalVal_Jul2019_8","FLK",2019,"CalVal","FLK",24.8977,-80.61816667,"07/10/19","07/10/19","02:17:00 PM","06:17:00 PM",0,2309.364716,2374.713998,7.427382729,2082.72932,1.31104235,36.49278724,NA,NA,31,NA,NA,"MapCO2_Buoy","Permanent","Single",2019-07-10,"Summer","Wet","July",36.49278724,2761.01831444374,3227.6940676083,2390.51630300212,2346.93023077372,NA,NA,"Inshore","UK",5
"1814","CalVal_Jul2019_9","FLK",2019,"CalVal","FLK",24.88546667,-80.6041,"07/10/19","07/10/19","02:34:00 PM","06:34:00 PM",0,2312.396371,2398.306793,7.483826569,1824.723287,1.474855179,36.54910659,NA,NA,30.7,NA,NA,"Transect 2","Permanent","Single",2019-07-10,"Summer","Wet","July",36.54910659,2761.01831444374,3227.6940676083,2413.68004998383,2351.1905803779,NA,NA,NA,"UK",5
"1815","CalVal_Jul2019_10","FLK",2019,"CalVal","FLK",24.8694,-80.58501667,"07/10/19","07/10/19","02:47:00 PM","06:47:00 PM",0,2344.089398,2367.856537,7.318987205,2717.724745,1.024787795,36.12863337,NA,NA,30.8,NA,NA,"Transect 3","Permanent","Single",2019-07-10,"Summer","Wet","July",36.12863337,2761.01831444374,3227.6940676083,2380.13863738523,2371.69259311105,NA,NA,"Off-shore","UK",5
"1816","CalVal_Jul2019_11","FLK",2019,"CalVal","FLK",24.8547,-80.56741667,"07/10/19","07/10/19","03:00:00 PM","07:00:00 PM",0,2300.40791,2345.567846,7.378911748,2322.710754,1.15379719,36.10898269,NA,NA,30.8,NA,NA,"Transect 4","Permanent","Single",2019-07-10,"Summer","Wet","July",36.10898269,2761.01831444374,3227.6940676083,2358.32720236326,2328.8868152711,NA,NA,"Oceanic","UK",5
"1821","CalVal_Jul2019_12","FLK",2019,"CalVal","FLK",24.89826667,-80.61738333,"07/22/19","07/22/19","10:03:00 AM","02:03:00 PM",0,2314.747824,2369.043663,7.40637733,2193.033721,1.228257701,35.93997793,NA,NA,30.7,NA,NA,"CalVal_N","Permanent","Single",2019-07-22,"Summer","Wet","July",35.93997793,2761.01831444374,3227.6940676083,2379.29540890241,2338.62511524207,NA,NA,"Inshore","UK",5
